time,x,y,z,w0,w1,w2,w3,vx,vy,vz,roll,pitch,yaw
0,0.000661076503677166,0.002364131410052475,0,0.0,0.0,0.022183267372417884,0.9997539210469163,0.0,0.0,0.0,0,0,0.0
0,-0.0006633180249056569,0.0009185544046201926,0,0.0,0.0,0.021602353814526493,0.9997666419268408,0.0,0.0,0.0,0,0,0.0
0,-0.0023149673788215863,-0.0008986039975602909,0,0.0,0.0,0.020914643689596637,0.9997812649171504,0.0,0.0,0.0,0,0,0.0
0,-0.004326444764267745,-0.00312379812323105,0,0.0,0.0,0.02010267930148479,0.999797920724434,0.0,0.0,0.0,0,0,0.0
0,-0.006712858233671293,-0.005787079253632536,0,0.0,0.0,0.01933016633678785,0.9998131548791465,0.0,0.0,0.0,0,0,0.0
0,-0.009530065549348377,-0.008938709703407969,0,0.0,0.0,0.01839193620725079,0.9998308540360956,0.0,0.0,0.0,0,0,0.0
0,-0.012800138423797042,-0.012633043020326718,0,0.0,0.0,0.017347588778141788,0.9998495192595657,0.0,0.0,0.0,0,0,0.0
0,-0.01639141942995495,-0.01690611838898964,0,0.0,0.0,0.01610367204827051,0.9998703274657978,0.0,0.0,0.0,0,0,0.0
0,-0.020155193178822167,-0.0215222200807728,0,0.0,0.0,0.01460366515992736,0.9998933607959885,0.0,0.0,0.0,0,0,0.0
0,-0.024128451525762817,-0.026131744228435217,0,0.0,0.0,0.01307188175592507,0.9999145593036233,0.0,0.0,0.0,0,0,0.0
0,-0.027989298434675597,-0.030848183805526626,0,0.0,0.0,0.010760206076877759,0.9999421073068095,0.0,0.0,0.0,0,0,0.0
0,-0.031786830228072244,-0.035622487225919236,0,0.0,0.0,0.008133477059592827,0.9999669227284076,0.0,0.0,0.0,0,0,0.0
0,-0.03559518316839805,-0.040399540639948175,0,0.0,0.0,0.005170311994457802,0.999986633847613,0.0,0.0,0.0,0,0,0.0
0,-0.03938973059109435,-0.04519472068870684,0,0.0,0.0,0.001997230387537535,0.9999980055334006,0.0,0.0,0.0,0,0,0.0
0,-0.04319580047452956,-0.05001019308451108,0,0.0,0.0,-0.0014742871731077143,0.9999989132380751,0.0,0.0,0.0,0,0,0.0
0,-0.04701748382642207,-0.05483929733746285,0,0.0,0.0,-0.005270765243580435,0.9999861094203994,0.0,0.0,0.0,0,0,0.0
0,-0.05083805422142951,-0.059734746317405725,0,0.0,0.0,-0.009365166244725451,0.9999561458690119,0.0,0.0,0.0,0,0,0.0
0,-0.05467576855265541,-0.06466543431196982,0,0.0,0.0,-0.01379681218660575,0.9999048194570759,0.0,0.0,0.0,0,0,0.0
0,-0.05853524887684369,-0.06959157889987255,0,0.0,0.0,-0.01847459493665237,0.999829330106857,0.0,0.0,0.0,0,0,0.0
0,-0.06238614339739537,-0.07454258291672847,0,0.0,0.0,-0.023400650371991266,0.9997261672889071,0.0,0.0,0.0,0,0,0.0
0,-0.06624308360513276,-0.07957647347909506,0,0.0,0.0,-0.028693073884685213,0.9995882689943135,0.0,0.0,0.0,0,0,0.0
0,-0.07002716840652136,-0.08469421552395212,0,0.0,0.0,-0.034283362766328915,0.9994121527365136,0.0,0.0,0.0,0,0,0.0
0,-0.07377651458539641,-0.0898817782953134,0,0.0,0.0,-0.04017039432804571,0.9991928439593277,0.0,0.0,0.0,0,0,0.0
0,-0.07755048037537404,-0.09509138306292005,0,0.0,0.0,-0.046192975251245265,0.9989325347777185,0.0,0.0,0.0,0,0,0.0
0,-0.08136821241561669,-0.10035580518834783,0,0.0,0.0,-0.052540809077062565,0.9986187778033856,0.0,0.0,0.0,0,0,0.0
0,-0.0852110379285276,-0.10563989646004385,0,0.0,0.0,-0.059049205009658,0.9982550733092858,0.0,0.0,0.0,0,0,0.0
0,-0.08904988435487869,-0.11094313136988265,0,0.0,0.0,-0.06569518084496612,0.9978397382414409,0.0,0.0,0.0,0,0,0.0
0,-0.09291073877668896,-0.11627221963523493,0,0.0,0.0,-0.07239002791752817,0.997376400291334,0.0,0.0,0.0,0,0,0.0
0,-0.09680534480753232,-0.12159291886502355,0,0.0,0.0,-0.07912429870464054,0.9968647578054401,0.0,0.0,0.0,0,0,0.0
0,-0.10071862093150771,-0.12691379978788908,0,0.0,0.0,-0.0858877618270398,0.99630481900287,0.0,0.0,0.0,0,0,0.0
0,-0.10468787061637766,-0.13221197421616648,0,0.0,0.0,-0.0926818464962408,0.9956957744863876,0.0,0.0,0.0,0,0,0.0
0,-0.10871788163590004,-0.13747271240892023,0,0.0,0.0,-0.09953882260053545,0.9950336792266377,0.0,0.0,0.0,0,0,0.0
0,-0.11282155134315873,-0.14268941310559147,0,0.0,0.0,-0.10640982860046916,0.9943223563700149,0.0,0.0,0.0,0,0,0.0
0,-0.11697946542062176,-0.14785928638677154,0,0.0,0.0,-0.11330636429732077,0.9935600977342653,0.0,0.0,0.0,0,0,0.0
0,-0.12120107782271396,-0.15299363510658467,0,0.0,0.0,-0.12024091330431645,0.9927447419995453,0.0,0.0,0.0,0,0,0.0
0,-0.12551303192375515,-0.15808489695452482,0,0.0,0.0,-0.12734303866547445,0.9918587351550842,0.0,0.0,0.0,0,0,0.0
0,-0.12984609939996614,-0.1631483483043619,0,0.0,0.0,-0.1345182170026841,0.9909111207845125,0.0,0.0,0.0,0,0,0.0
0,-0.13419164352604365,-0.168201309266972,0,0.0,0.0,-0.14172294006929118,0.989906363378939,0.0,0.0,0.0,0,0,0.0
0,-0.13857466885141567,-0.1732267941612124,0,0.0,0.0,-0.14900614106467774,0.9888362705347197,0.0,0.0,0.0,0,0,0.0
0,-0.1429655555467945,-0.1782299959924537,0,0.0,0.0,-0.15641393460744274,0.9876915920775162,0.0,0.0,0.0,0,0,0.0
0,-0.14738795032367472,-0.18320237858093175,0,0.0,0.0,-0.16388221877719417,0.9864799128054579,0.0,0.0,0.0,0,0,0.0
0,-0.15180539397514078,-0.18816459478756098,0,0.0,0.0,-0.17151500285317378,0.9851815080462462,0.0,0.0,0.0,0,0,0.0
0,-0.1561754233801813,-0.1931782790087211,0,0.0,0.0,-0.17895913683523265,0.9838565074964888,0.0,0.0,0.0,0,0,0.0
0,-0.16058923834498742,-0.1981708847843239,0,0.0,0.0,-0.18626140068701627,0.9825002242310741,0.0,0.0,0.0,0,0,0.0
0,-0.16509260854166552,-0.20308133159725694,0,0.0,0.0,-0.19367768977499142,0.9810652131654767,0.0,0.0,0.0,0,0,0.0
0,-0.1697081948453258,-0.2078678545814852,0,0.0,0.0,-0.2013424070996158,0.9795209212177821,0.0,0.0,0.0,0,0,0.0
0,-0.17432061020664763,-0.21263165591074865,0,0.0,0.0,-0.2091019762389542,0.9778938406253328,0.0,0.0,0.0,0,0,0.0
0,-0.17893583875172445,-0.217401915304858,0,0.0,0.0,-0.21685692648886037,0.9762033975733772,0.0,0.0,0.0,0,0,0.0
0,-0.18355414387774424,-0.2221605172955777,0,0.0,0.0,-0.2246178842728162,0.974446923164522,0.0,0.0,0.0,0,0,0.0
0,-0.18815234646478385,-0.22694278908283302,0,0.0,0.0,-0.23241313332727148,0.972617157702351,0.0,0.0,0.0,0,0,0.0
0,-0.19271492634678947,-0.2317596417842261,0,0.0,0.0,-0.24024076808615982,0.9707133322198537,0.0,0.0,0.0,0,0,0.0
0,-0.19726501962862186,-0.23657190885930005,0,0.0,0.0,-0.24800502124182866,0.9687587467676564,0.0,0.0,0.0,0,0,0.0
0,-0.20184630810668483,-0.24136694232506062,0,0.0,0.0,-0.25577283458486133,0.9667369120336852,0.0,0.0,0.0,0,0,0.0
0,-0.20643600495836903,-0.24613710948339573,0,0.0,0.0,-0.26347088705151456,0.9646673476780937,0.0,0.0,0.0,0,0,0.0
0,-0.21102378151890894,-0.2509108734007776,0,0.0,0.0,-0.27116244196079914,0.9625335994498354,0.0,0.0,0.0,0,0,0.0
0,-0.21561868573387333,-0.2556754735258601,0,0.0,0.0,-0.27882234663722166,0.9603426987360881,0.0,0.0,0.0,0,0,0.0
0,-0.22019527047077359,-0.2604491266167783,0,0.0,0.0,-0.2864651454633827,0.9580906639951372,0.0,0.0,0.0,0,0,0.0
0,-0.2247717882243416,-0.2652323869293428,0,0.0,0.0,-0.2941251829113773,0.9557669050439803,0.0,0.0,0.0,0,0,0.0
0,-0.22935888731831236,-0.2700298524391377,0,0.0,0.0,-0.301823644739592,0.9533637749967787,0.0,0.0,0.0,0,0,0.0
0,-0.23380688547463407,-0.2749394305658716,0,0.0,0.0,-0.3096866498214142,0.9508386713435611,0.0,0.0,0.0,0,0,0.0
0,-0.23803397330855172,-0.2799598103232233,0,0.0,0.0,-0.3176726544602955,0.948200445374368,0.0,0.0,0.0,0,0,0.0
0,-0.24210325981601616,-0.2850765226304435,0,0.0,0.0,-0.325699396579909,0.945473375123532,0.0,0.0,0.0,0,0,0.0
0,-0.246032228156418,-0.2902649063212147,0,0.0,0.0,-0.3338786853576042,0.9426160530480466,0.0,0.0,0.0,0,0,0.0
0,-0.24971838327228935,-0.29568093660694167,0,0.0,0.0,-0.3419987299529411,0.9397004143398976,0.0,0.0,0.0,0,0,0.0
0,-0.2532835439687268,-0.3011944925070175,0,0.0,0.0,-0.3500905639042024,0.9367158571654681,0.0,0.0,0.0,0,0,0.0
0,-0.2567276003041913,-0.306794428516653,0,0.0,0.0,-0.3580894634401032,0.9336872796462309,0.0,0.0,0.0,0,0,0.0
0,-0.26022139620435647,-0.3123704969285469,0,0.0,0.0,-0.366117308436235,0.9305687059338535,0.0,0.0,0.0,0,0,0.0
0,-0.26360620931902445,-0.31800102627069343,0,0.0,0.0,-0.3741408645454965,0.9273718852095681,0.0,0.0,0.0,0,0,0.0
0,-0.266984465497837,-0.323632064824096,0,0.0,0.0,-0.382149189800537,0.9241006421027923,0.0,0.0,0.0,0,0,0.0
0,-0.2702700121158927,-0.32933222338754997,0,0.0,0.0,-0.39012639360096374,0.9207613138136864,0.0,0.0,0.0,0,0,0.0
0,-0.2736135131750931,-0.3350216906656705,0,0.0,0.0,-0.3980244443821664,0.917374809810182,0.0,0.0,0.0,0,0,0.0
0,-0.27689197950328504,-0.3407454703955946,0,0.0,0.0,-0.4059607163765297,0.9138905277761964,0.0,0.0,0.0,0,0,0.0
0,-0.2801124225907328,-0.3464402521591572,0,0.0,0.0,-0.4137391292635386,0.9103954815992052,0.0,0.0,0.0,0,0,0.0
0,-0.28362201995695874,-0.35212102865118977,0,0.0,0.0,-0.42123722826669524,0.9069504934240855,0.0,0.0,0.0,0,0,0.0
0,-0.28754060773560325,-0.3574923407020588,0,0.0,0.0,-0.42864593836772574,0.9034725560418821,0.0,0.0,0.0,0,0,0.0
0,-0.29163887515516573,-0.3626444708529665,0,0.0,0.0,-0.43608320895753094,0.8999063478303186,0.0,0.0,0.0,0,0,0.0
0,-0.2957062836572805,-0.3678363188509176,0,0.0,0.0,-0.4435215668775104,0.8962636998754988,0.0,0.0,0.0,0,0,0.0
0,-0.299708967925586,-0.3730676810379184,0,0.0,0.0,-0.45094082445542916,0.8925538487057562,0.0,0.0,0.0,0,0,0.0
0,-0.30371803897428656,-0.3782952953039876,0,0.0,0.0,-0.4583202422155085,0.888787126130615,0.0,0.0,0.0,0,0,0.0
0,-0.3077016777227676,-0.3835438160521092,0,0.0,0.0,-0.4657068674012522,0.8849390451637403,0.0,0.0,0.0,0,0,0.0
0,-0.3116792489627976,-0.388789670051476,0,0.0,0.0,-0.4730504575929403,0.8810353367323639,0.0,0.0,0.0,0,0,0.0
0,-0.3156486210063256,-0.3940440780872439,0,0.0,0.0,-0.4803929111369442,0.8770533911509447,0.0,0.0,0.0,0,0,0.0
0,-0.31959404899283517,-0.3993156029617565,0,0.0,0.0,-0.4877032647156707,0.8730094647743954,0.0,0.0,0.0,0,0,0.0
0,-0.3235607169940786,-0.4045727243454979,0,0.0,0.0,-0.49495868329564274,0.8689165102760125,0.0,0.0,0.0,0,0,0.0
0,-0.3275299192211588,-0.40983143286018714,0,0.0,0.0,-0.5021913637144878,0.8647565172987036,0.0,0.0,0.0,0,0,0.0
0,-0.33149474795139655,-0.4150909409436761,0,0.0,0.0,-0.5093401747200784,0.8605652714443687,0.0,0.0,0.0,0,0,0.0
0,-0.3354115785817535,-0.4203865773492138,0,0.0,0.0,-0.5165183197729175,0.8562761384851046,0.0,0.0,0.0,0,0,0.0
0,-0.33929232642414864,-0.4257005305313843,0,0.0,0.0,-0.5236487306386923,0.8519342738148795,0.0,0.0,0.0,0,0,0.0
0,-0.3431845184744542,-0.43101352747675054,0,0.0,0.0,-0.530747083657015,0.8475302550290306,0.0,0.0,0.0,0,0,0.0
0,-0.3470563326922295,-0.4363362979641544,0,0.0,0.0,-0.5378342612988695,0.8430505959745829,0.0,0.0,0.0,0,0,0.0
0,-0.35093543138010885,-0.44165580125051856,0,0.0,0.0,-0.544869561880631,0.8385208169962206,0.0,0.0,0.0,0,0,0.0
0,-0.3548229006043657,-0.4469655959062638,0,0.0,0.0,-0.5519670712113077,0.8338659078643348,0.0,0.0,0.0,0,0,0.0
0,-0.35868249788304024,-0.4523098557680911,0,0.0,0.0,-0.5589924583858554,0.8291727392212902,0.0,0.0,0.0,0,0,0.0
0,-0.36259041250314833,-0.4576073117238624,0,0.0,0.0,-0.5659482642740102,0.8244407572198472,0.0,0.0,0.0,0,0,0.0
0,-0.36684006687772003,-0.46276805747797706,0,0.0,0.0,-0.5726347594559477,0.8198106075569095,0.0,0.0,0.0,0,0,0.0
0,-0.37165581926922353,-0.4676205285367615,0,0.0,0.0,-0.5792228013749086,0.8151692746708522,0.0,0.0,0.0,0,0,0.0
0,-0.3766973782792433,-0.472138039164899,0,0.0,0.0,-0.5858014443321888,0.8104546056493982,0.0,0.0,0.0,0,0,0.0
0,-0.3817121837556656,-0.4765774801333248,0,0.0,0.0,-0.5924198708980977,0.8056293791595993,0.0,0.0,0.0,0,0,0.0
0,-0.3867138209964351,-0.4810349690756491,0,0.0,0.0,-0.5989469214716514,0.8007887269808632,0.0,0.0,0.0,0,0,0.0
0,-0.3916859953502551,-0.4855160715046878,0,0.0,0.0,-0.6055410403225596,0.7958140790945284,0.0,0.0,0.0,0,0,0.0
0,-0.3966230581393584,-0.4900124570565082,0,0.0,0.0,-0.6120648518546833,0.7908075727533878,0.0,0.0,0.0,0,0,0.0
0,-0.40155078230056634,-0.4945371268990885,0,0.0,0.0,-0.6186179412677897,0.7856919515570983,0.0,0.0,0.0,0,0,0.0
0,-0.4064459502556042,-0.4990722454794586,0,0.0,0.0,-0.6252148082476545,0.7804527170481558,0.0,0.0,0.0,0,0,0.0
0,-0.41132804358815733,-0.5036094891078191,0,0.0,0.0,-0.6317856965198032,0.775143105286364,0.0,0.0,0.0,0,0,0.0
0,-0.41617653256958403,-0.5081775754260177,0,0.0,0.0,-0.6383423556174619,0.7697525816941115,0.0,0.0,0.0,0,0,0.0
0,-0.42099791828400407,-0.5127490999013599,0,0.0,0.0,-0.6448724694283263,0.7642901923833725,0.0,0.0,0.0,0,0,0.0
0,-0.4255517544377225,-0.5174810364477626,0,0.0,0.0,-0.6514593862056558,0.7586835098541093,0.0,0.0,0.0,0,0,0.0
0,-0.42977371055882446,-0.5224131995441643,0,0.0,0.0,-0.6580661617224485,0.7529601096976416,0.0,0.0,0.0,0,0,0.0
0,-0.43371708523508984,-0.5275533022816844,0,0.0,0.0,-0.6646349949295287,0.7471682029603678,0.0,0.0,0.0,0,0,0.0
0,-0.43737319655462575,-0.5329177296773714,0,0.0,0.0,-0.6710094119536996,0.7414488310527912,0.0,0.0,0.0,0,0,0.0
0,-0.4407494995633493,-0.5385053423118351,0,0.0,0.0,-0.6771819554142188,0.7358156013984585,0.0,0.0,0.0,0,0,0.0
0,-0.4438797630848528,-0.544341440686217,0,0.0,0.0,-0.6831728633460906,0.7302566937642571,0.0,0.0,0.0,0,0,0.0
0,-0.4467557821587556,-0.5503837005176424,0,0.0,0.0,-0.6889574058598152,0.7248018300962781,0.0,0.0,0.0,0,0,0.0
0,-0.44937907734974447,-0.5564807379137581,0,0.0,0.0,-0.694487766845902,0.7195045112446427,0.0,0.0,0.0,0,0,0.0
0,-0.45174158993012214,-0.5626395941252816,0,0.0,0.0,-0.6997582454569089,0.7143797294962034,0.0,0.0,0.0,0,0,0.0
0,-0.45390704152986583,-0.5688016057206525,0,0.0,0.0,-0.7048051675076272,0.7094009274412783,0.0,0.0,0.0,0,0,0.0
0,-0.4560660621387681,-0.5749754240903311,0,0.0,0.0,-0.7099340452516648,0.7042681672435631,0.0,0.0,0.0,0,0,0.0
0,-0.45831909112769575,-0.5811155296304457,0,0.0,0.0,-0.7151772895803711,0.69894309100847,0.0,0.0,0.0,0,0,0.0
0,-0.46070366697655635,-0.5872136123712077,0,0.0,0.0,-0.7205277461413384,0.6934261078445803,0.0,0.0,0.0,0,0,0.0
0,-0.46326546527514867,-0.593249284879591,0,0.0,0.0,-0.7259811185043514,0.6877146323695396,0.0,0.0,0.0,0,0,0.0
0,-0.46595230342952054,-0.5992346298930754,0,0.0,0.0,-0.7315685890300672,0.6817678487172569,0.0,0.0,0.0,0,0,0.0
0,-0.46877177089368055,-0.6051687563870166,0,0.0,0.0,-0.7372583145286989,0.6756109662063681,0.0,0.0,0.0,0,0,0.0
0,-0.4717071371626309,-0.6110466297151264,0,0.0,0.0,-0.7430662220929449,0.6692178939512291,0.0,0.0,0.0,0,0,0.0
0,-0.47468040650136667,-0.616913772479611,0,0.0,0.0,-0.7488038149656305,0.6627917068679406,0.0,0.0,0.0,0,0,0.0
0,-0.4776462646061578,-0.6227818116274372,0,0.0,0.0,-0.754322633302459,0.6565038955616672,0.0,0.0,0.0,0,0,0.0
0,-0.48062335044414656,-0.628650529477515,0,0.0,0.0,-0.7596001136499356,0.6503903961029905,0.0,0.0,0.0,0,0,0.0
0,-0.4835060601636413,-0.6345679441197435,0,0.0,0.0,-0.7647397434275158,0.6443392932472903,0.0,0.0,0.0,0,0,0.0
0,-0.48633827664998536,-0.6404969762220293,0,0.0,0.0,-0.7699159016829168,0.6381453630136174,0.0,0.0,0.0,0,0,0.0
0,-0.48931830620803834,-0.6463549613545089,0,0.0,0.0,-0.7751609197430721,0.6317638391860324,0.0,0.0,0.0,0,0,0.0
0,-0.4924370235641076,-0.6521561111274551,0,0.0,0.0,-0.7804876768257704,0.6251711656203539,0.0,0.0,0.0,0,0,0.0
0,-0.49558828256288606,-0.6579521873419737,0,0.0,0.0,-0.7857211350233982,0.618580874241633,0.0,0.0,0.0,0,0,0.0
0,-0.4987628939364884,-0.6637267154324777,0,0.0,0.0,-0.7907447270694143,0.6121460418984326,0.0,0.0,0.0,0,0,0.0
0,-0.5018567695224341,-0.6696140269349836,0,0.0,0.0,-0.795623178806102,0.6057918432485485,0.0,0.0,0.0,0,0,0.0
0,-0.5046891709068887,-0.6755782259493487,0,0.0,0.0,-0.8003535972146182,0.5995282473959183,0.0,0.0,0.0,0,0,0.0
0,-0.5073605883760647,-0.6815875560981868,0,0.0,0.0,-0.8051562170127629,0.5930627843708429,0.0,0.0,0.0,0,0,0.0
0,-0.510205029558216,-0.6875244199336602,0,0.0,0.0,-0.8100416365242332,0.5863723621532159,0.0,0.0,0.0,0,0,0.0
0,-0.5131236355641797,-0.6934235015213991,0,0.0,0.0,-0.8149754209826474,0.5794955247404044,0.0,0.0,0.0,0,0,0.0
0,-0.5160561624924188,-0.699313215967911,0,0.0,0.0,-0.8197022056075252,0.5727899214565138,0.0,0.0,0.0,0,0,0.0
0,-0.5190443055859187,-0.7051773881900439,0,0.0,0.0,-0.8242065826106942,0.5662892451576323,0.0,0.0,0.0,0,0,0.0
0,-0.5220140097341169,-0.7110473345702096,0,0.0,0.0,-0.8285197757128197,0.559959803247322,0.0,0.0,0.0,0,0,0.0
0,-0.5249444321049777,-0.7169385322663937,0,0.0,0.0,-0.8326668428684295,0.5537742579675609,0.0,0.0,0.0,0,0,0.0
0,-0.5279100343729031,-0.7228113700725375,0,0.0,0.0,-0.8368509276344209,0.5474308403053391,0.0,0.0,0.0,0,0,0.0
0,-0.5310168802917554,-0.7286166693520196,0,0.0,0.0,-0.8411367213129801,0.54082253656708,0.0,0.0,0.0,0,0,0.0
0,-0.5341900625438697,-0.7343919760392416,0,0.0,0.0,-0.8453890348971733,0.5341510831924112,0.0,0.0,0.0,0,0,0.0
0,-0.5373938457588351,-0.7401479647439815,0,0.0,0.0,-0.8494397578019967,0.5276856051336686,0.0,0.0,0.0,0,0,0.0
0,-0.5406484416214801,-0.745876423118415,0,0.0,0.0,-0.8533011476503243,0.5214184034138426,0.0,0.0,0.0,0,0,0.0
0,-0.5438766815114964,-0.7516188259929313,0,0.0,0.0,-0.8569776839819192,0.5153535186228831,0.0,0.0,0.0,0,0,0.0
0,-0.547030822499514,-0.7573987452875788,0,0.0,0.0,-0.8605607722212277,0.5093477763905567,0.0,0.0,0.0,0,0,0.0
0,-0.5502071231289801,-0.7631723028594002,0,0.0,0.0,-0.8642078467568981,0.5031349695696034,0.0,0.0,0.0,0,0,0.0
0,-0.553512914736674,-0.7688851023511588,0,-0.0,-0.0,-0.8678564678010574,0.4968150071162023,0.0,0.0,0.0,0,0,0.0
0,-0.5569275675062073,-0.7745389606859328,0,-0.0,-0.0,-0.871333024319782,0.49069212417741354,0.0,0.0,0.0,0,0,0.0
0,-0.5603547612139035,-0.7801745706158384,0,-0.0,-0.0,-0.8746367127376604,0.48477894006594324,0.0,0.0,0.0,0,0,0.0
0,-0.5638068961655998,-0.7858040134977267,0,-0.0,-0.0,-0.8777799026706966,0.4790641318940737,0.0,0.0,0.0,0,0,0.0
0,-0.5672892103367525,-0.7914190333337837,0,-0.0,-0.0,-0.8807709746697233,0.4735424903631623,0.0,0.0,0.0,0,0,0.0
0,-0.5707320425486029,-0.7970605756753845,0,-0.0,-0.0,-0.8836026580251365,0.4682374853970085,0.0,0.0,0.0,0,0,0.0
0,-0.5741684735066487,-0.8027008621545456,0,-0.0,-0.0,-0.8862811987731162,0.46314753232775413,0.0,0.0,0.0,0,0,0.0
0,-0.5776834588616327,-0.8082964181182227,0,-0.0,-0.0,-0.8890140674886838,0.45787988360183063,0.0,0.0,0.0,0,0,0.0
0,-0.5812803889556881,-0.813843384300841,0,-0.0,-0.0,-0.8917624025058756,0.4525039419463093,0.0,0.0,0.0,0,0,0.0
0,-0.5849298032738582,-0.8193576038619991,0,-0.0,-0.0,-0.8943560370867741,0.4473558750328879,0.0,0.0,0.0,0,0,0.0
0,-0.5886140822981568,-0.8248477107680414,0,-0.0,-0.0,-0.8967868956938917,0.4424627257879618,0.0,0.0,0.0,0,0,0.0
0,-0.5923321259774428,-0.8303159065117361,0,-0.0,-0.0,-0.8990730347773122,0.4377986730636744,0.0,0.0,0.0,0,0,0.0
0,-0.5960453663712487,-0.8357837706767413,0,-0.0,-0.0,-0.9012211565316486,0.4333594662860819,0.0,0.0,0.0,0,0,0.0
0,-0.599719960520551,-0.8412698392441789,0,-0.0,-0.0,-0.9032402117927877,0.4291353164218951,0.0,0.0,0.0,0,0,0.0
0,-0.6033717047364876,-0.8467651397681448,0,-0.0,-0.0,-0.9051694346002546,0.4250509318487085,0.0,0.0,0.0,0,0,0.0
0,-0.6070628282051233,-0.8522359950460778,0,-0.0,-0.0,-0.9071398248283171,0.42082934570969516,0.0,0.0,0.0,0,0,0.0
0,-0.6109534336908858,-0.8575793220872032,0,-0.0,-0.0,-0.9092054506260505,0.41634774954583387,0.0,0.0,0.0,0,0,0.0
0,-0.6149230585920069,-0.8628589145078013,0,-0.0,-0.0,-0.9113181049592406,0.41170294093374965,0.0,0.0,0.0,0,0,0.0
0,-0.6189154925805985,-0.868125262243767,0,-0.0,-0.0,-0.9133041573943567,0.4072781802235227,0.0,0.0,0.0,0,0,0.0
0,-0.6229610748036354,-0.873362925115398,0,-0.0,-0.0,-0.9151505884950347,0.4031121436736825,0.0,0.0,0.0,0,0,0.0
0,-0.627014439923454,-0.8786007373909015,0,-0.0,-0.0,-0.9168880765530005,0.3991444037875755,0.0,0.0,0.0,0,0,0.0
0,-0.6310450214937806,-0.8838495680839844,0,-0.0,-0.0,-0.9184930064254361,0.3954372227643268,0.0,0.0,0.0,0,0,0.0
0,-0.6350031993712396,-0.889137949609065,0,-0.0,-0.0,-0.9200325504348861,0.3918419402517791,0.0,0.0,0.0,0,0,0.0
0,-0.6389784876353337,-0.8944203994650871,0,-0.0,-0.0,-0.9216159698881214,0.3881030843051588,0.0,0.0,0.0,0,0,0.0
0,-0.6430936672169436,-0.8995988471767737,0,-0.0,-0.0,-0.9232858227338657,0.3841136414378546,0.0,0.0,0.0,0,0,0.0
0,-0.6473320496675266,-0.9046838838464687,0,-0.0,-0.0,-0.9250499253980753,0.3798455416626808,0.0,0.0,0.0,0,0,0.0
0,-0.6516246158965381,-0.9097092797087817,0,-0.0,-0.0,-0.9269031872443875,0.37530052155065824,0.0,0.0,0.0,0,0,0.0
0,-0.6560027843022415,-0.9146676523848121,0,-0.0,-0.0,-0.9287786982599704,0.3706347658524697,0.0,0.0,0.0,0,0,0.0
0,-0.6604109917787121,-0.9195909083406009,0,-0.0,-0.0,-0.930554963160152,0.3661522368332717,0.0,0.0,0.0,0,0,0.0
0,-0.6648108612013413,-0.9245262041059495,0,-0.0,-0.0,-0.932206362811023,0.36192719866658724,0.0,0.0,0.0,0,0,0.0
0,-0.6691681984066932,-0.9294877741772597,0,-0.0,-0.0,-0.9337448526792276,0.35793931063107276,0.0,0.0,0.0,0,0,0.0
0,-0.6734946248281755,-0.9344863978363855,0,-0.0,-0.0,-0.9351995073675133,0.3541212806646337,0.0,0.0,0.0,0,0,0.0
0,-0.6778192397546748,-0.9394938686576971,0,-0.0,-0.0,-0.93668933216467,0.35016152702560654,0.0,0.0,0.0,0,0,0.0
0,-0.6823242829967486,-0.9443461892348246,0,-0.0,-0.0,-0.9382360520169736,0.3459958246794358,0.0,0.0,0.0,0,0,0.0
0,-0.687009981408008,-0.94903208192737,0,-0.0,-0.0,-0.9398648489155775,0.34154657921416604,0.0,0.0,0.0,0,0,0.0
0,-0.6917346909090138,-0.9536750685944405,0,-0.0,-0.0,-0.9415233796636482,0.336947659951426,0.0,0.0,0.0,0,0,0.0
0,-0.6964924615917971,-0.9582850175481505,0,-0.0,-0.0,-0.9430685163100361,0.33259851705139526,0.0,0.0,0.0,0,0,0.0
0,-0.7012680308121325,-0.9628719204722203,0,-0.0,-0.0,-0.9445101656603249,0.32848218667730794,0.0,0.0,0.0,0,0,0.0
0,-0.7060199029102933,-0.9674675088574102,0,-0.0,-0.0,-0.9458626902812076,0.3245670518305829,0.0,0.0,0.0,0,0,0.0
0,-0.710746162146242,-0.9720795542857246,0,-0.0,-0.0,-0.9471583122943565,0.32076647494977756,0.0,0.0,0.0,0,0,0.0
0,-0.7154386924553225,-0.9767290534612061,0,-0.0,-0.0,-0.9484932565232347,0.31679732058518006,0.0,0.0,0.0,0,0,0.0
0,-0.7202561879387092,-0.9812673839283459,0,-0.0,-0.0,-0.9498806449000111,0.3126127963541142,0.0,0.0,0.0,0,0,0.0
0,-0.7252124064048623,-0.9856678227849989,0,-0.0,-0.0,-0.9513256776160561,0.3081873701311455,0.0,0.0,0.0,0,0,0.0
0,-0.7302338130798592,-0.9899883404195382,0,-0.0,-0.0,-0.9528373890195975,0.3034813175243517,0.0,0.0,0.0,0,0,0.0
0,-0.7353217554676411,-0.9942335741033062,0,-0.0,-0.0,-0.9543756521204529,0.29860863122096815,0.0,0.0,0.0,0,0,0.0
0,-0.740456004231653,-0.998427282687693,0,-0.0,-0.0,-0.9558286568652878,0.2939244438883909,0.0,0.0,0.0,0,0,0.0
0,-0.7455780769048965,-1.0026253379346934,0,-0.0,-0.0,-0.957186363014345,0.28947239325947893,0.0,0.0,0.0,0,0,0.0
0,-0.7506644026583563,-1.0068632304742084,0,-0.0,-0.0,-0.9584487415321991,0.2852648065488345,0.0,0.0,0.0,0,0,0.0
0,-0.7556989162760076,-1.011143763750417,0,-0.0,-0.0,-0.9596875309693367,0.2810691069861263,0.0,0.0,0.0,0,0,0.0
0,-0.7607378845267606,-1.0154215552620007,0,-0.0,-0.0,-0.9609619215544698,0.2766806558513641,0.0,0.0,0.0,0,0,0.0
0,-0.7659480847964767,-1.019509136722632,0,-0.0,-0.0,-0.9622745465814271,0.2720803135133246,0.0,0.0,0.0,0,0,0.0
0,-0.7713233234799461,-1.023397845935634,0,-0.0,-0.0,-0.9636224655786526,0.26726717687010976,0.0,0.0,0.0,0,0,0.0
0,-0.7767422980824282,-1.0272141237742183,0,-0.0,-0.0,-0.9649979481511505,0.26225743090343423,0.0,0.0,0.0,0,0,0.0
0,-0.7821898664863509,-1.0309896072446736,0,-0.0,-0.0,-0.9662843183135387,0.25747740906988315,0.0,0.0,0.0,0,0,0.0
0,-0.7876599256781666,-1.034736190837013,0,-0.0,-0.0,-0.9674813275635898,0.2529424456586792,0.0,0.0,0.0,0,0,0.0
0,-0.7930958034306297,-1.038517587461786,0,-0.0,-0.0,-0.9686012744986018,0.24861932957773877,0.0,0.0,0.0,0,0,0.0
0,-0.7984905674809433,-1.0423578077025475,0,-0.0,-0.0,-0.9696587431335395,0.24446251627741328,0.0,0.0,0.0,0,0,0.0
0,-0.803876838402616,-1.046199113256738,0,-0.0,-0.0,-0.9707415016816329,0.2401269183429636,0.0,0.0,0.0,0,0,0.0
0,-0.8094136270065586,-1.0498307758636374,0,-0.0,-0.0,-0.971876315823217,0.2354918825392728,0.0,0.0,0.0,0,0,0.0
0,-0.8150494470070018,-1.05331596717058,0,-0.0,-0.0,-0.9730413048842209,0.23063091507690936,0.0,0.0,0.0,0,0,0.0
0,-0.8207801489835304,-1.056648674131519,0,-0.0,-0.0,-0.9742106336211935,0.22564051351517675,0.0,0.0,0.0,0,0,0.0
0,-0.8265487112775634,-1.059915872086071,0,-0.0,-0.0,-0.9752934462265814,0.2209133172705493,0.0,0.0,0.0,0,0,0.0
0,-0.8323231954713313,-1.0631855342102208,0,-0.0,-0.0,-0.97629569197409,0.21644103546424084,0.0,0.0,0.0,0,0,0.0
0,-0.8380776238449281,-1.0664751217864774,0,-0.0,-0.0,-0.9772211548129093,0.21222350149341163,0.0,0.0,0.0,0,0,0.0
0,-0.8438103657984144,-1.0697794890137757,0,-0.0,-0.0,-0.978104742510033,0.20811322081833758,0.0,0.0,0.0,0,0,0.0
0,-0.849516420025973,-1.0731437157332506,0,-0.0,-0.0,-0.9790055399276174,0.20383363998867893,0.0,0.0,0.0,0,0,0.0
0,-0.8553256417376965,-1.0763426239172387,0,-0.0,-0.0,-0.9799276432349273,0.19935349012254824,0.0,0.0,0.0,0,0,0.0
0,-0.8612469519344046,-1.0793216616663515,0,-0.0,-0.0,-0.9808870617151338,0.1945779333836476,0.0,0.0,0.0,0,0,0.0
0,-0.8672477601303493,-1.0821412068973277,0,-0.0,-0.0,-0.9818700081046858,0.18955549895612153,0.0,0.0,0.0,0,0,0.0
0,-0.8733082503878499,-1.0848405688809248,0,-0.0,-0.0,-0.9828229428842078,0.1845509765360923,0.0,0.0,0.0,0,0,0.0
0,-0.8793589479452196,-1.087546154542254,0,-0.0,-0.0,-0.9837038188047463,0.17979654298389317,0.0,0.0,0.0,0,0,0.0
0,-0.8854125691013489,-1.0902592402420739,0,-0.0,-0.0,-0.9845138336702599,0.1753069060587395,0.0,0.0,0.0,0,0,0.0
0,-0.8914502613514096,-1.0930212478945127,0,-0.0,-0.0,-0.9852851190036764,0.17091879437297444,0.0,0.0,0.0,0,0,0.0
0,-0.897446620228928,-1.0958427974061087,0,-0.0,-0.0,-0.98606147127316,0.16638141383763697,0.0,0.0,0.0,0,0,0.0
0,-0.9035527418028131,-1.0984694488388984,0,-0.0,-0.0,-0.9868462671651893,0.1616615136083161,0.0,0.0,0.0,0,0,0.0
0,-0.9097470881005725,-1.100842980893523,0,-0.0,-0.0,-0.9876560089077241,0.15663846292806133,0.0,0.0,0.0,0,0,0.0
0,-0.9160025595939125,-1.1030701693402747,0,-0.0,-0.0,-0.988492794522678,0.15126795819586733,0.0,0.0,0.0,0,0,0.0
0,-0.9223254468091222,-1.105122128695389,0,-0.0,-0.0,-0.9893296577709224,0.14569429726269112,0.0,0.0,0.0,0,0,0.0
0,-0.9286451039739212,-1.1071410824627719,0,-0.0,-0.0,-0.9901045426002438,0.140331730988974,0.0,0.0,0.0,0,0,0.0
0,-0.9349808448948808,-1.1092007775849717,0,-0.0,-0.0,-0.9908076832078714,0.13527799117465625,0.0,0.0,0.0,0,0,0.0
0,-0.9412330683489945,-1.1113386373530887,0,-0.0,-0.0,-0.9914647384164742,0.13037512215431482,0.0,0.0,0.0,0,0,0.0
0,-0.9475105000994465,-1.1135740373681027,0,-0.0,-0.0,-0.9921228812124493,0.1252684660028548,0.0,0.0,0.0,0,0,0.0
0,-0.9538356553320032,-1.115515957977396,0,-0.0,-0.0,-0.9927831360630496,0.11992349539942705,0.0,0.0,0.0,0,0,0.0
0,-0.9602845435597969,-1.1171398627854732,0,-0.0,-0.0,-0.9934420287176757,0.11433693881379126,0.0,0.0,0.0,0,0,0.0
0,-0.9667693743991143,-1.1185561047467434,0,-0.0,-0.0,-0.9941002365379371,0.10846529267566393,0.0,0.0,0.0,0,0,0.0
0,-0.9732775027123942,-1.1198700125114298,0,-0.0,-0.0,-0.9947448695442836,0.10238478654236784,0.0,0.0,0.0,0,0,0.0
0,-0.9798291679183908,-1.121131796478815,0,-0.0,-0.0,-0.9953311722226327,0.09651869042791583,0.0,0.0,0.0,0,0,0.0
0,-0.9863256928632762,-1.1224785584067845,0,-0.0,-0.0,-0.9958557235211956,0.09094711611742329,0.0,0.0,0.0,0,0,0.0
0,-0.9927916830531841,-1.1239866162009147,0,-0.0,-0.0,-0.9963424333649594,0.0854503099841735,0.0,0.0,0.0,0,0,0.0
0,-0.9992305941328237,-1.1254648152602962,0,-0.0,-0.0,-0.9968158402296621,0.07973820080258073,0.0,0.0,0.0,0,0,0.0
0,-1.005820231500544,-1.1266010754480358,0,-0.0,-0.0,-0.997271644841159,0.07381914653942563,0.0,0.0,0.0,0,0,0.0
0,-1.0124153666664921,-1.127311979724708,0,-0.0,-0.0,-0.9977082357511472,0.06766296117029777,0.0,0.0,0.0,0,0,0.0
0,-1.019040722940996,-1.1278870875764704,0,-0.0,-0.0,-0.9981262692515762,0.06118783073397881,0.0,0.0,0.0,0,0,0.0
0,-1.0256351713458283,-1.1284103825403342,0,-0.0,-0.0,-0.9985094297996308,0.05457947051058916,0.0,0.0,0.0,0,0,0.0
0,-1.0322687590537822,-1.1288682603796099,0,-0.0,-0.0,-0.9988373157797479,0.04820805540475853,0.0,0.0,0.0,0,0,0.0
0,-1.0388910735996595,-1.1294058561341045,0,-0.0,-0.0,-0.9991142951254962,0.04207879841301068,0.0,0.0,0.0,0,0,0.0
0,-1.0454953502236621,-1.1299605156210015,0,-0.0,-0.0,-0.9993454315262075,0.036176076178851456,0.0,0.0,0.0,0,0,0.0
0,-1.0521322211594752,-1.1302807680485922,0,-0.0,-0.0,-0.9995468871730738,0.030100171803800087,0.0,0.0,0.0,0,0,0.0
0,-1.05878362785753,-1.1303062668846786,0,-0.0,-0.0,-0.9997176831829264,0.023760343670955808,0.0,0.0,0.0,0,0,0.0
0,-1.0654171223098368,-1.1301364897784172,0,-0.0,-0.0,-0.999852577992817,0.017170389661205578,0.0,0.0,0.0,0,0,0.0
0,-1.0720590502398673,-1.129762168456333,0,-0.0,-0.0,-0.9999457695574788,0.01041431438460879,0.0,0.0,0.0,0,0,0.0
0,-1.0786866556533372,-1.129333374748562,0,-0.0,-0.0,-0.9999924797727366,0.003878195195308045,0.0,0.0,0.0,0,0,0.0
0,-1.0853260102946103,-1.1289497416084882,0,0.0,0.0,0.9999970914248064,0.0024118751889878115,0.0,0.0,0.0,0,0,0.0
0,-1.0919706630969104,-1.1286323057671908,0,0.0,0.0,0.9999627146059814,0.008635357423793335,0.0,0.0,0.0,0,0,0.0
0,-1.0985984726724567,-1.1284330967836862,0,0.0,0.0,0.9998856341178215,0.015123448178310586,0.0,0.0,0.0,0,0,0.0
0,-1.1052170241654953,-1.1278782227183703,0,0.0,0.0,0.9997622127970665,0.021806372075915324,0.0,0.0,0.0,0,0,0.0
0,-1.1118023833073771,-1.127019492172191,0,0.0,0.0,0.9995860496802876,0.028770284749329765,0.0,0.0,0.0,0,0,0.0
0,-1.1183374720206187,-1.1258876477387907,0,0.0,0.0,0.9993528640737608,0.03597016913459484,0.0,0.0,0.0,0,0,0.0
0,-1.1249064186945654,-1.1246213932049918,0,0.0,0.0,0.9990628513812594,0.043283010407636435,0.0,0.0,0.0,0,0,0.0
0,-1.1313971443984179,-1.12331656638092,0,0.0,0.0,0.9987292750581861,0.05039677709685445,0.0,0.0,0.0,0,0,0.0
0,-1.137948460546687,-1.1221350591545813,0,0.0,0.0,0.9983581986410481,0.05727920395921549,0.0,0.0,0.0,0,0,0.0
0,-1.1444312819338407,-1.1209157512781565,0,0.0,0.0,0.9979466146853168,0.0640511845176635,0.0,0.0,0.0,0,0,0.0
0,-1.1509714334986234,-1.1197830201210077,0,0.0,0.0,0.9974689269949747,0.07110372479338856,0.0,0.0,0.0,0,0,0.0
0,-1.1574604631241323,-1.118223252016852,0,0.0,0.0,0.9969481633795267,0.07806637902572675,0.0,0.0,0.0,0,0,0.0
0,-1.163719829306256,-1.116384582711561,0,0.0,0.0,0.9963475884244745,0.0853901811728608,0.0,0.0,0.0,0,0,0.0
0,-1.1701010559179585,-1.114439766118253,0,0.0,0.0,0.9956664628498322,0.09299620828885287,0.0,0.0,0.0,0,0,0.0
0,-1.1763842854421351,-1.1122361220901977,0,0.0,0.0,0.9949005016769148,0.10086125005681494,0.0,0.0,0.0,0,0,0.0
0,-1.1826924918391213,-1.110147977428851,0,0.0,0.0,0.994090789109318,0.1085518447932289,0.0,0.0,0.0,0,0,0.0
0,-1.189007786716725,-1.1081060993915521,0,0.0,0.0,0.9932564807299288,0.11593775695603463,0.0,0.0,0.0,0,0,0.0
0,-1.1953200623367308,-1.106030857076686,0,0.0,0.0,0.9923874360253006,0.12315509254241085,0.0,0.0,0.0,0,0,0.0
0,-1.2015734260572177,-1.1038131811278196,0,0.0,0.0,0.9914394483990002,0.13056730125987168,0.0,0.0,0.0,0,0,0.0
0,-1.2077395650841893,-1.1013337125231621,0,0.0,0.0,0.9903984396343353,0.13824229009197536,0.0,0.0,0.0,0,0,0.0
0,-1.213835872676691,-1.098672448161376,0,0.0,0.0,0.9892556306862529,0.14619609145098245,0.0,0.0,0.0,0,0,0.0
0,-1.2198650741569292,-1.095890893141623,0,0.0,0.0,0.9880559529544111,0.15409553475474402,0.0,0.0,0.0,0,0,0.0
0,-1.2258574966225522,-1.0929965902309622,0,0.0,0.0,0.9868332887168172,0.16174071930206907,0.0,0.0,0.0,0,0,0.0
0,-1.2318618128892094,-1.0901494419653543,0,0.0,0.0,0.9855905501580423,0.16914865485473837,0.0,0.0,0.0,0,0,0.0
0,-1.2378792327613406,-1.0873350482109811,0,0.0,0.0,0.984341295797684,0.17627312156802627,0.0,0.0,0.0,0,0,0.0
0,-1.243902605137388,-1.0845299206582868,0,0.0,0.0,0.9830717845496317,0.18322081328932652,0.0,0.0,0.0,0,0,0.0
0,-1.249848853726527,-1.0815903466585868,0,0.0,0.0,0.9817101471871177,0.19038168743302933,0.0,0.0,0.0,0,0,0.0
0,-1.255697483922704,-1.0784318415489662,0,0.0,0.0,0.9802484175860139,0.19777016918664878,0.0,0.0,0.0,0,0,0.0
0,-1.2614343502798304,-1.0750847991844936,0,0.0,0.0,0.9786737113493376,0.2054209500360499,0.0,0.0,0.0,0,0,0.0
0,-1.2671149074079282,-1.0716363609943937,0,0.0,0.0,0.976993137166393,0.21327074325788217,0.0,0.0,0.0,0,0,0.0
0,-1.2727600008233677,-1.0681272291586346,0,0.0,0.0,0.9752911620939623,0.22092340107242722,0.0,0.0,0.0,0,0,0.0
0,-1.2784227242363377,-1.064654204513664,0,0.0,0.0,0.9735872427006529,0.22831531015361173,0.0,0.0,0.0,0,0,0.0
0,-1.28409584564629,-1.0611982113295135,0,0.0,0.0,0.9718603688691152,0.23555768597434326,0.0,0.0,0.0,0,0,0.0
0,-1.2898041332190053,-1.0578085003534956,0,0.0,0.0,0.9700232563888064,0.24301210271271673,0.0,0.0,0.0,0,0,0.0
0,-1.2953973478670897,-1.0542430920238723,0,0.0,0.0,0.9680645531822538,0.2507010587772679,0.0,0.0,0.0,0,0,0.0
0,-1.3008549304175725,-1.0504470503160157,0,0.0,0.0,0.9659925204859523,0.25857001056811857,0.0,0.0,0.0,0,0,0.0
0,-1.3062281672152583,-1.046538971123779,0,0.0,0.0,0.963849872845083,0.2664459093634524,0.0,0.0,0.0,0,0,0.0
0,-1.3115223764917803,-1.0425253357453772,0,0.0,0.0,0.9616587537086089,0.27424886766512846,0.0,0.0,0.0,0,0,0.0
0,-1.3167591786997175,-1.038432200602339,0,0.0,0.0,0.9594690514013031,0.2818140156257023,0.0,0.0,0.0,0,0,0.0
0,-1.3220022692847597,-1.0343508629866542,0,0.0,0.0,0.9572906964193709,0.2891271736605116,0.0,0.0,0.0,0,0,0.0
0,-1.3272796011343693,-1.030317298872817,0,0.0,0.0,0.955131057237447,0.29618349633373703,0.0,0.0,0.0,0,0,0.0
0,-1.3325623108747522,-1.0262980343593862,0,0.0,0.0,0.9529570985820904,0.3031052098892459,0.0,0.0,0.0,0,0,0.0
0,-1.337750777077094,-1.0221615514283637,0,0.0,0.0,0.9506587326188555,0.3102385760918708,0.0,0.0,0.0,0,0,0.0
0,-1.3428117299106435,-1.0178432193539309,0,0.0,0.0,0.9482263862276911,0.3175952147964034,0.0,0.0,0.0,0,0,0.0
0,-1.3477913828086487,-1.0134235362542716,0,0.0,0.0,0.9456499514923605,0.32518636078792745,0.0,0.0,0.0,0,0,0.0
0,-1.352695962919958,-1.008924050836354,0,0.0,0.0,0.9429840031674611,0.3328380533687058,0.0,0.0,0.0,0,0,0.0
0,-1.357547637652284,-1.004369126338371,0,0.0,0.0,0.9403374403681989,0.3402432927212289,0.0,0.0,0.0,0,0,0.0
0,-1.3623810962431802,-0.999796828907008,0,0.0,0.0,0.9377194573216769,0.34739346476342875,0.0,0.0,0.0,0,0,0.0
0,-1.3672525756910003,-0.995273924616564,0,0.0,0.0,0.9351342850830519,0.35429347843589976,0.0,0.0,0.0,0,0,0.0
0,-1.3721616436342519,-0.9907996902457887,0,0.0,0.0,0.932560600230487,0.36101347190617916,0.0,0.0,0.0,0,0,0.0
0,-1.3770836474852626,-0.9863439023654267,0,0.0,0.0,0.9298730862179625,0.36788047451241757,0.0,0.0,0.0,0,0,0.0
0,-1.3818258653748994,-0.981683353725991,0,0.0,0.0,0.9270579805306406,0.3749179920121869,0.0,0.0,0.0,0,0,0.0
0,-1.3863592872034607,-0.9768118854036496,0,0.0,0.0,0.9240773391803219,0.38220553529928936,0.0,0.0,0.0,0,0,0.0
0,-1.3908367414350176,-0.9718926964722872,0,0.0,0.0,0.9209710458065702,0.3896310213342264,0.0,0.0,0.0,0,0,0.0
0,-1.3952839757549889,-0.9669505637773959,0,0.0,0.0,0.9179128748243499,0.3967819983715203,0.0,0.0,0.0,0,0,0.0
0,-1.3996899623473997,-0.9619715561993648,0,0.0,0.0,0.9148942658081589,0.40369355009877217,0.0,0.0,0.0,0,0,0.0
0,-1.4041300870854243,-0.9570283298261764,0,0.0,0.0,0.9119196734851479,0.4103687477266529,0.0,0.0,0.0,0,0,0.0
0,-1.4086224323526855,-0.952137224808879,0,0.0,0.0,0.9089645667143845,0.41687338180523237,0.0,0.0,0.0,0,0,0.0
0,-1.4131172266459262,-0.9472525193720228,0,0.0,0.0,0.9058818145042007,0.42353056341966255,0.0,0.0,0.0,0,0,0.0
0,-1.4174966308740158,-0.94224570433787,0,0.0,0.0,0.9026627712146903,0.4303486045789107,0.0,0.0,0.0,0,0,0.0
0,-1.4217476895839387,-0.9371263864382259,0,0.0,0.0,0.8992855986097625,0.4373618777775231,0.0,0.0,0.0,0,0,0.0
0,-1.425908532388769,-0.931928089989583,0,0.0,0.0,0.8958057006889063,0.4444458871597955,0.0,0.0,0.0,0,0,0.0
0,-1.4299822589813762,-0.9266657412305416,0,0.0,0.0,0.8923919157797712,0.45126119781220914,0.0,0.0,0.0,0,0,0.0
0,-1.4340110831685429,-0.9213686038992985,0,0.0,0.0,0.8890384029222227,0.45783263113227707,0.0,0.0,0.0,0,0,0.0
0,-1.4380341018625609,-0.9160758103410211,0,0.0,0.0,0.8857582641728092,0.4641468490139429,0.0,0.0,0.0,0,0,0.0
0,-1.442095078292022,-0.9108124061411986,0,0.0,0.0,0.8825508376663179,0.47021699132898265,0.0,0.0,0.0,0,0,0.0
0,-1.446214730536136,-0.9056080217248053,0,0.0,0.0,0.8793079141291228,0.47625370565476044,0.0,0.0,0.0,0,0,0.0
0,-1.4503179104291528,-0.900385956191736,0,0.0,0.0,0.8759316135805765,0.48243528926699353,0.0,0.0,0.0,0,0,0.0
0,-1.4541836274118212,-0.8949709404073966,0,0.0,0.0,0.8724061824842863,0.48878160027070794,0.0,0.0,0.0,0,0,0.0
0,-1.457924265436295,-0.8894779145620011,0,0.0,0.0,0.8686963271053172,0.4953450224578135,0.0,0.0,0.0,0,0,0.0
0,-1.4616422391505675,-0.8839678135525415,0,0.0,0.0,0.8650502686572978,0.5016851928210926,0.0,0.0,0.0,0,0,0.0
0,-1.4653177811885267,-0.8784330110787523,0,0.0,0.0,0.8615065259855726,0.5077464974613509,0.0,0.0,0.0,0,0,0.0
0,-1.4689768639677503,-0.8728875289657523,0,0.0,0.0,0.8580479758826118,0.5135695387031364,0.0,0.0,0.0,0,0,0.0
0,-1.472679804400838,-0.8673748600479678,0,0.0,0.0,0.8546907163671684,0.5191375341427126,0.0,0.0,0.0,0,0,0.0
0,-1.4764100396897324,-0.8618903517618932,0,0.0,0.0,0.8513945183433461,0.5245258564979434,0.0,0.0,0.0,0,0,0.0
0,-1.4801570853722568,-0.8564133453965355,0,0.0,0.0,0.8479720728734331,0.530040907503122,0.0,0.0,0.0,0,0,0.0
0,-1.483767590152371,-0.85083454566361,0,0.0,0.0,0.844354698140404,0.5357846057215783,0.0,0.0,0.0,0,0,0.0
0,-1.4872604960723712,-0.8451611884384125,0,0.0,0.0,0.840561852652865,0.5417155820767786,0.0,0.0,0.0,0,0,0.0
0,-1.4906715707454958,-0.8394489956135893,0,0.0,0.0,0.8368813221859176,0.5473843737049404,0.0,0.0,0.0,0,0,0.0
0,-1.49400024753878,-0.8336888816772193,0,0.0,0.0,0.833313954705948,0.5528000116609376,0.0,0.0,0.0,0,0,0.0
0,-1.4973282692387286,-0.8279296734008461,0,0.0,0.0,0.8298661003527236,0.5579625932671138,0.0,0.0,0.0,0,0,0.0
0,-1.5006877521698523,-0.8221833526289412,0,0.0,0.0,0.8265358512813518,0.5628840791376237,0.0,0.0,0.0,0,0,0.0
0,-1.5040431754529784,-0.8164446909849534,0,0.0,0.0,0.8233382740686072,0.5675509549403709,0.0,0.0,0.0,0,0,0.0
0,-1.507445200913917,-0.8107503191230337,0,0.0,0.0,0.8201528867223609,0.5721444244253178,0.0,0.0,0.0,0,0,0.0
0,-1.5108551906715746,-0.8050608259108963,0,0.0,0.0,0.8169090169609288,0.5767665541689537,0.0,0.0,0.0,0,0,0.0
0,-1.5140654863429726,-0.7992462155527899,0,0.0,0.0,0.8136797774475799,0.5813133576418626,0.0,0.0,0.0,0,0,0.0
0,-1.5172020227389167,-0.7933974254612559,0,0.0,0.0,0.8105739106491207,0.5856363507971404,0.0,0.0,0.0,0,0,0.0
0,-1.5203198102912454,-0.7875366646076319,0,0.0,0.0,0.8076051799467523,0.589723556696842,0.0,0.0,0.0,0,0,0.0
0,-1.5233915136123937,-0.7816495564187301,0,0.0,0.0,0.804787324042524,0.5935632763745353,0.0,0.0,0.0,0,0,0.0
0,-1.526447162713761,-0.7757581948476178,0,0.0,0.0,0.8020975826091348,0.5971929905588157,0.0,0.0,0.0,0,0,0.0
0,-1.5295522324218673,-0.7698877471115665,0,0.0,0.0,0.7995825449239677,0.6005562037419235,0.0,0.0,0.0,0,0,0.0
0,-1.532728162027191,-0.7640557260723359,0,0.0,0.0,0.7971301932981529,0.6038074651181855,0.0,0.0,0.0,0,0,0.0
0,-1.535883053993343,-0.7581968169623681,0,0.0,0.0,0.7945104536258455,0.6072504747460085,0.0,0.0,0.0,0,0,0.0
0,-1.5389222381076808,-0.7522798694001993,0,0.0,0.0,0.7918050597043802,0.6107738922273468,0.0,0.0,0.0,0,0,0.0
0,-1.5418940535412091,-0.7463336237616356,0,0.0,0.0,0.789236390311294,0.6140895050466164,0.0,0.0,0.0,0,0,0.0
0,-1.5448063166172536,-0.7403577314008589,0,0.0,0.0,0.7868536277252601,0.6171396669600792,0.0,0.0,0.0,0,0,0.0
0,-1.5476438098977283,-0.7343386610277152,0,0.0,0.0,0.7845995909372216,0.6200028079784349,0.0,0.0,0.0,0,0,0.0
0,-1.550465323421963,-0.7283325610647778,0,0.0,0.0,0.782495433422243,0.6226563230814699,0.0,0.0,0.0,0,0,0.0
0,-1.5533149340755896,-0.7223390416269411,0,0.0,0.0,0.7805660716645664,0.625073281916726,0.0,0.0,0.0,0,0,0.0
0,-1.5561706952072987,-0.7163479613800179,0,0.0,0.0,0.7788108511838552,0.6272588445596271,0.0,0.0,0.0,0,0,0.0
0,-1.5590468892007832,-0.7103660084902416,0,0.0,0.0,0.777175056019333,0.62928446055925,0.0,0.0,0.0,0,0,0.0
0,-1.5618680076256124,-0.7043583459252237,0,0.0,0.0,0.7754944113429869,0.6313544313424859,0.0,0.0,0.0,0,0,0.0
0,-1.5646117164819446,-0.6983035012959995,0,0.0,0.0,0.7739351327968875,0.6332648815643134,0.0,0.0,0.0,0,0,0.0
0,-1.5673118549651683,-0.6922241861264494,0,0.0,0.0,0.7725224973189727,0.6349873944702032,0.0,0.0,0.0,0,0,0.0
0,-1.5699756581263382,-0.6861322712097614,0,0.0,0.0,0.7712964782983899,0.6364760345562913,0.0,0.0,0.0,0,0,0.0
0,-1.5725981797311395,-0.6800086139344879,0,0.0,0.0,0.7701995264376704,0.6378030177689568,0.0,0.0,0.0,0,0,0.0
0,-1.5752387981726832,-0.673890624048396,0,0.0,0.0,0.7692836031716174,0.6389074564373886,0.0,0.0,0.0,0,0,0.0
0,-1.5778936899287777,-0.6677873823247336,0,0.0,0.0,0.7685446590866564,0.63979614486911,0.0,0.0,0.0,0,0,0.0
0,-1.5805696159240328,-0.6617040598245686,0,0.0,0.0,0.7678609191833387,0.6406165848547145,0.0,0.0,0.0,0,0,0.0
0,-1.5832560602675505,-0.6556330402267952,0,0.0,0.0,0.7671379644378141,0.6414821459075901,0.0,0.0,0.0,0,0,0.0
0,-1.5858275694485215,-0.6495192798850158,0,0.0,0.0,0.7664857672486489,0.6422612930928112,0.0,0.0,0.0,0,0,0.0
0,-1.5883432748310113,-0.6433811677816537,0,0.0,0.0,0.7659925649696053,0.6428494305910869,0.0,0.0,0.0,0,0,0.0
0,-1.5908597738844268,-0.6372362435099307,0,0.0,0.0,0.7656846268068999,0.6432161784902323,0.0,0.0,0.0,0,0,0.0
0,-1.593341670353124,-0.6310877849734735,0,0.0,0.0,0.7655458392544616,0.6433813550299559,0.0,0.0,0.0,0,0,0.0
0,-1.5958196113309764,-0.6249186236888951,0,0.0,0.0,0.7655767080430795,0.6433446231235024,0.0,0.0,0.0,0,0,0.0
0,-1.5983183122888016,-0.6187550236214115,0,0.0,0.0,0.7657610873195464,0.6431251488996411,0.0,0.0,0.0,0,0,0.0
0,-1.6008421055263673,-0.6125952008510476,0,0.0,0.0,0.7660106534292078,0.6428278765213576,0.0,0.0,0.0,0,0,0.0
0,-1.603367006615117,-0.6064424143677031,0,0.0,0.0,0.7660911855689186,0.6427319000902386,0.0,0.0,0.0,0,0,0.0
0,-1.6058127308358656,-0.6002586792070934,0,0.0,0.0,0.7661090624030126,0.6427105915604445,0.0,0.0,0.0,0,0,0.0
0,-1.6081878537360923,-0.594051817866301,0,0.0,0.0,0.7662597462600517,0.6425309340891543,0.0,0.0,0.0,0,0,0.0
0,-1.6105518538246741,-0.5878499774237099,0,0.0,0.0,0.7665850277224611,0.6421428153236268,0.0,0.0,0.0,0,0,0.0
0,-1.6129034991134927,-0.5816425868820351,0,0.0,0.0,0.7671011646916271,0.6415261515548286,0.0,0.0,0.0,0,0,0.0
0,-1.615262058561615,-0.5754426385960372,0,0.0,0.0,0.7678100568855967,0.6406775449048738,0.0,0.0,0.0,0,0,0.0
0,-1.617647865576317,-0.5692473984400415,0,0.0,0.0,0.7687258688772898,0.6395784068578736,0.0,0.0,0.0,0,0,0.0
0,-1.620051116334099,-0.5630678932578177,0,0.0,0.0,0.7697700917285366,0.6383212403486509,0.0,0.0,0.0,0,0,0.0
0,-1.622448906918386,-0.5568855479687007,0,0.0,0.0,0.7706713804098759,0.6372327858931428,0.0,0.0,0.0,0,0,0.0
0,-1.6247822737413067,-0.5506710360760506,0,0.0,0.0,0.77140099085101,0.6363493626256569,0.0,0.0,0.0,0,0,0.0
0,-1.627077802153503,-0.5444384406418793,0,0.0,0.0,0.7719886401148262,0.6356363264742353,0.0,0.0,0.0,0,0,0.0
0,-1.629359372028831,-0.538192275253772,0,0.0,0.0,0.7727181320109299,0.6347493115093066,0.0,0.0,0.0,0,0,0.0
0,-1.6316359346182638,-0.5319458716446094,0,0.0,0.0,0.7736281329525555,0.6336398913455045,0.0,0.0,0.0,0,0,0.0
0,-1.633912068600469,-0.5256985232009331,0,0.0,0.0,0.7747147452712909,0.632310891460236,0.0,0.0,0.0,0,0,0.0
0,-1.6361735852649684,-0.5194560460243396,0,0.0,0.0,0.7759400503821569,0.630806656760164,0.0,0.0,0.0,0,0,0.0
0,-1.6384468450475613,-0.5132195351963418,0,0.0,0.0,0.7772517814497192,0.6291896917728685,0.0,0.0,0.0,0,0,0.0
0,-1.640738233769237,-0.506996889814683,0,0.0,0.0,0.778433062310247,0.6277276220641327,0.0,0.0,0.0,0,0,0.0
0,-1.6430096822653697,-0.5007617439281425,0,0.0,0.0,0.7794514063840148,0.626462692493321,0.0,0.0,0.0,0,0,0.0
0,-1.6452527828578885,-0.49451456522240544,0,0.0,0.0,0.7803194466551533,0.6253811327277111,0.0,0.0,0.0,0,0,0.0
0,-1.647490466627304,-0.4882692399097675,0,0.0,0.0,0.7811998961461631,0.6242809641989923,0.0,0.0,0.0,0,0,0.0
0,-1.649724398832069,-0.4820217427937472,0,0.0,0.0,0.7822144353101328,0.623009291417431,0.0,0.0,0.0,0,0,0.0
0,-1.651961756372272,-0.4757758275107842,0,0.0,0.0,0.7833952157903142,0.6215238819843101,0.0,0.0,0.0,0,0,0.0
0,-1.6542050719065917,-0.46953152130466247,0,0.0,0.0,0.7847432297887749,0.6198209929493206,0.0,0.0,0.0,0,0,0.0
0,-1.656452305149156,-0.46328658640085596,0,0.0,0.0,0.7861871908868783,0.6179884310287684,0.0,0.0,0.0,0,0,0.0
0,-1.6587008079938226,-0.457038518705414,0,0.0,0.0,0.7874710519752303,0.6163516385157288,0.0,0.0,0.0,0,0,0.0
0,-1.6609248173800037,-0.45078277275609596,0,0.0,0.0,0.7885555247696144,0.6149635634371499,0.0,0.0,0.0,0,0,0.0
0,-1.6631292466045282,-0.4445241862038917,0,0.0,0.0,0.7894539947892907,0.6138097344546032,0.0,0.0,0.0,0,0,0.0
0,-1.665320948316753,-0.43825649673683176,0,0.0,0.0,0.7901809124220527,0.6128736620575659,0.0,0.0,0.0,0,0,0.0
0,-1.6675027302811514,-0.4319927110438607,0,0.0,0.0,0.7909383055471965,0.6118959035801182,0.0,0.0,0.0,0,0,0.0
0,-1.6695733292872077,-0.42567780597919175,0,0.0,0.0,0.7917929752311257,0.6107895581742059,0.0,0.0,0.0,0,0,0.0
0,-1.6713076075215134,-0.41926619661355374,0,0.0,0.0,0.7925236174315715,0.6098412218054595,0.0,0.0,0.0,0,0,0.0
0,-1.6727221159001635,-0.4127625852144888,0,0.0,0.0,0.7930955787478797,0.6090972032201141,0.0,0.0,0.0,0,0,0.0
0,-1.674062641530437,-0.4062326226580897,0,0.0,0.0,0.7934689320886228,0.6086107572251248,0.0,0.0,0.0,0,0,0.0
0,-1.6754259185868687,-0.3997149775927421,0,0.0,0.0,0.7937173633958343,0.6082867309451725,0.0,0.0,0.0,0,0,0.0
0,-1.676793723574854,-0.39319925913546316,0,0.0,0.0,0.7939371651179968,0.6079998173062212,0.0,0.0,0.0,0,0,0.0
0,-1.6781680987560097,-0.38667635720490057,0,0.0,0.0,0.7941529934642907,0.6077178810695846,0.0,0.0,0.0,0,0,0.0
0,-1.6795616407844975,-0.38016675160672947,0,0.0,0.0,0.7943678741104885,0.6074369766331177,0.0,0.0,0.0,0,0,0.0
0,-1.6809634051576927,-0.3736541399304071,0,0.0,0.0,0.7945878780540852,0.6071491612853516,0.0,0.0,0.0,0,0,0.0
0,-1.6823772711843408,-0.367149718896638,0,0.0,0.0,0.7948499632120298,0.606806011820775,0.0,0.0,0.0,0,0,0.0
0,-1.6838130561185407,-0.3606539661081122,0,0.0,0.0,0.7952375917023503,0.6062979240797756,0.0,0.0,0.0,0,0,0.0
0,-1.6852512299189386,-0.35415504776794005,0,0.0,0.0,0.795597769464108,0.605825213426889,0.0,0.0,0.0,0,0,0.0
0,-1.686710097863707,-0.3476678545565521,0,0.0,0.0,0.7958564036202618,0.605485412554772,0.0,0.0,0.0,0,0,0.0
0,-1.6881862460767754,-0.341182787050865,0,0.0,0.0,0.7960678723591299,0.6052073550425566,0.0,0.0,0.0,0,0,0.0
0,-1.6896751498996774,-0.33469869509536054,0,0.0,0.0,0.796237785632666,0.6049837921223907,0.0,0.0,0.0,0,0,0.0
0,-1.6911844390065105,-0.3282197584412984,0,0.0,0.0,0.79635063366243,0.6048352405948632,0.0,0.0,0.0,0,0,0.0
0,-1.6926909318437617,-0.3217467236322945,0,0.0,0.0,0.7963748861987153,0.6048033073917358,0.0,0.0,0.0,0,0,0.0
0,-1.6941957938427756,-0.315274309493304,0,0.0,0.0,0.79639922363261,0.604771259731624,0.0,0.0,0.0,0,0,0.0
0,-1.6957190324544749,-0.3088058351369283,0,0.0,0.0,0.7965855768829113,0.6045257800144828,0.0,0.0,0.0,0,0,0.0
0,-1.697270307346863,-0.30234793287504974,0,0.0,0.0,0.7969320688138336,0.6040689345563987,0.0,0.0,0.0,0,0,0.0
0,-1.6988453492724265,-0.2958938667494989,0,0.0,0.0,0.7972982711963822,0.6035855090600333,0.0,0.0,0.0,0,0,0.0
0,-1.7004367563739313,-0.28944404158276904,0,0.0,0.0,0.7975958837471531,0.6031921801794162,0.0,0.0,0.0,0,0,0.0
0,-1.7020271187092546,-0.2829951175737697,0,0.0,0.0,0.7977727450164468,0.6029582467376351,0.0,0.0,0.0,0,0,0.0
0,-1.7036167773330608,-0.2765542637138842,0,0.0,0.0,0.7977800994732324,0.6029485159484838,0.0,0.0,0.0,0,0,0.0
0,-1.7052173712559209,-0.2701120142721251,0,0.0,0.0,0.7976883999737066,0.603069827256668,0.0,0.0,0.0,0,0,0.0
0,-1.7068181503878506,-0.26366765257833485,0,0.0,0.0,0.7975992972412791,0.6031876665186524,0.0,0.0,0.0,0,0,0.0
0,-1.708416760867444,-0.2572283021980722,0,0.0,0.0,0.797628962393609,0.6031484380738246,0.0,0.0,0.0,0,0,0.0
0,-1.7100697178676536,-0.25080123763499296,0,0.0,0.0,0.7978196612378361,0.6028961669660402,0.0,0.0,0.0,0,0,0.0
0,-1.7117493321109407,-0.244379227114501,0,0.0,0.0,0.7981891972800548,0.6024068437073248,0.0,0.0,0.0,0,0,0.0
0,-1.7134426156896465,-0.23796846747850095,0,0.0,0.0,0.7986363233149005,0.6018139439079632,0.0,0.0,0.0,0,0,0.0
0,-1.7151594255209506,-0.23156230748910261,0,0.0,0.0,0.7989392962706396,0.6014116733773751,0.0,0.0,0.0,0,0,0.0
0,-1.7168790276491008,-0.22515504087892113,0,0.0,0.0,0.7990848535217285,0.6012182605944009,0.0,0.0,0.0,0,0,0.0
0,-1.7185959552183843,-0.2187462475034486,0,0.0,0.0,0.7990656738302427,0.6012437516566963,0.0,0.0,0.0,0,0,0.0
0,-1.7203185154773084,-0.2123432332704677,0,0.0,0.0,0.7989049990567655,0.601457232463048,0.0,0.0,0.0,0,0,0.0
0,-1.7220606694940161,-0.20594477303765943,0,0.0,0.0,0.798866747709898,0.6015080376881172,0.0,0.0,0.0,0,0,0.0
0,-1.7238401483345163,-0.199554462827951,0,0.0,0.0,0.7989959732923557,0.6013363739726713,0.0,0.0,0.0,0,0,0.0
0,-1.725640411295738,-0.19317552391751447,0,0.0,0.0,0.7992997180579356,0.6009325758456632,0.0,0.0,0.0,0,0,0.0
0,-1.7274648262863894,-0.186799962928195,0,0.0,0.0,0.7996824365494445,0.6004231846575737,0.0,0.0,0.0,0,0,0.0
0,-1.7293139632178196,-0.18043352290650555,0,0.0,0.0,0.8000065791163804,0.5999912277446277,0.0,0.0,0.0,0,0,0.0
0,-1.7311693376237922,-0.17406742703292644,0,0.0,0.0,0.8001911797836119,0.5997450089800754,0.0,0.0,0.0,0,0,0.0
0,-1.733009691281997,-0.1676997788040075,0,0.0,0.0,0.800310434943124,0.5995858635100954,0.0,0.0,0.0,0,0,0.0
0,-1.7348481003079204,-0.16133041816176907,0,0.0,0.0,0.8005747292195121,0.5992329287807072,0.0,0.0,0.0,0,0,0.0
0,-1.7367210273707594,-0.15496775847352517,0,0.0,0.0,0.8009964367578805,0.5986691142034789,0.0,0.0,0.0,0,0,0.0
0,-1.7386190756613387,-0.1486150530444023,0,0.0,0.0,0.8015884440689344,0.597876213220717,0.0,0.0,0.0,0,0,0.0
0,-1.7405398094264333,-0.14227430961398918,0,0.0,0.0,0.8022514427774878,0.5969862833947175,0.0,0.0,0.0,0,0,0.0
0,-1.742480921945775,-0.13593662471742218,0,0.0,0.0,0.8027681128874078,0.5962913356163992,0.0,0.0,0.0,0,0,0.0
0,-1.7444278867987049,-0.12959856819743928,0,0.0,0.0,0.8031210919488274,0.5958158370393675,0.0,0.0,0.0,0,0,0.0
0,-1.746369163741426,-0.12326201226833966,0,0.0,0.0,0.8033005848883491,0.5955738160111099,0.0,0.0,0.0,0,0,0.0
0,-1.7483140273805888,-0.11692165569083618,0,0.0,0.0,0.803375133604915,0.5954732527202915,0.0,0.0,0.0,0,0,0.0
0,-1.7502537286812032,-0.11058351515235398,0,0.0,0.0,0.8035665693683823,0.5952148927853941,0.0,0.0,0.0,0,0,0.0
0,-1.7522291443638456,-0.10425315780909637,0,0.0,0.0,0.8039140054361966,0.5947455522015528,0.0,0.0,0.0,0,0,0.0
0,-1.7542350655163148,-0.09793294868805957,0,0.0,0.0,0.804433518525301,0.5940426872481499,0.0,0.0,0.0,0,0,0.0
0,-1.756264791425403,-0.09162579916055313,0,0.0,0.0,0.8050490358734942,0.5932082685188707,0.0,0.0,0.0,0,0,0.0
0,-1.7583305444302006,-0.08532406370919268,0,0.0,0.0,0.8056484824653211,0.5923938915125003,0.0,0.0,0.0,0,0,0.0
0,-1.7604107485954643,-0.07903253283423661,0,0.0,0.0,0.8061176901533033,0.5917552446931942,0.0,0.0,0.0,0,0,0.0
0,-1.7624740171064492,-0.07272608609711458,0,0.0,0.0,0.8064225989271239,0.5913396586900143,0.0,0.0,0.0,0,0,0.0
0,-1.7645261886073147,-0.06642474782611804,0,0.0,0.0,0.8066146301740593,0.5910776923460779,0.0,0.0,0.0,0,0,0.0
0,-1.7665676299287658,-0.06011136781632234,0,0.0,0.0,0.8069325697695088,0.5906435708997227,0.0,0.0,0.0,0,0,0.0
0,-1.7686331300061315,-0.05382084960330315,0,0.0,0.0,0.8074002403690852,0.5900041117246067,0.0,0.0,0.0,0,0,0.0
0,-1.7707296830900197,-0.04752280461033857,0,0.0,0.0,0.8080119472192352,0.5891660997978238,0.0,0.0,0.0,0,0,0.0
0,-1.7728387536566086,-0.041243581095181336,0,0.0,0.0,0.8086195349122351,0.5883319197173643,0.0,0.0,0.0,0,0,0.0
0,-1.77496168478295,-0.03496880876120063,0,0.0,0.0,0.8090580427033209,0.5877287499664023,0.0,0.0,0.0,0,0,0.0
0,-1.7770797458780303,-0.02868661830798365,0,0.0,0.0,0.8093359720785639,0.5873459664453692,0.0,0.0,0.0,0,0,0.0
0,-1.7791987277070238,-0.022405764494327865,0,0.0,0.0,0.809453366272325,0.5871841685795014,0.0,0.0,0.0,0,0,0.0
0,-1.7813229252405127,-0.01612265701070163,0,0.0,0.0,0.8094927462775933,0.5871298780712486,0.0,0.0,0.0,0,0,0.0
0,-1.7834305052667803,-0.009836117761629341,0,0.0,0.0,0.8096710280208533,0.5868839973824926,0.0,0.0,0.0,0,0,0.0
0,-1.7855563516846182,-0.003552516855082649,0,0.0,0.0,0.8100146790457661,0.5864096006464963,0.0,0.0,0.0,0,0,0.0
0,-1.787708234018779,0.002719297603738506,0,0.0,0.0,0.8104442290672697,0.585815800035777,0.0,0.0,0.0,0,0,0.0
0,-1.7898729574597785,0.008984954073513927,0,0.0,0.0,0.8107607440140843,0.5853776695140729,0.0,0.0,0.0,0,0,0.0
0,-1.792033823209487,0.01525814130590536,0,0.0,0.0,0.810970531899505,0.5850869989929983,0.0,0.0,0.0,0,0,0.0
0,-1.794192894320703,0.02152863320997693,0,0.0,0.0,0.8110854111882311,0.5849277355003925,0.0,0.0,0.0,0,0,0.0
0,-1.7963522796228584,0.02780485284295614,0,0.0,0.0,0.8111246615636233,0.5848733054288736,0.0,0.0,0.0,0,0,0.0
0,-1.7985021560283094,0.03407757906139294,0,0.0,0.0,0.8110893470270841,0.5849222778619202,0.0,0.0,0.0,0,0,0.0
0,-1.8006455842605988,0.04034772845518628,0,0.0,0.0,0.8111977030791416,0.5847719953273443,0.0,0.0,0.0,0,0,0.0
0,-1.802800012927263,0.046623475826504654,0,0.0,0.0,0.8114312296888652,0.5844479099848121,0.0,0.0,0.0,0,0,0.0
0,-1.8049543819328084,0.052894157572386455,0,0.0,0.0,0.8116283403726087,0.5841741496369071,0.0,0.0,0.0,0,0,0.0
0,-1.807117047597149,0.05916838491882252,0,0.0,0.0,0.8117735219006713,0.5839723873103754,0.0,0.0,0.0,0,0,0.0
0,-1.8092817633001088,0.06543894157236481,0,0.0,0.0,0.8118763681191942,0.583829395362709,0.0,0.0,0.0,0,0,0.0
0,-1.8114497278482817,0.07170618320763117,0,0.0,0.0,0.811946064007732,0.5837324636700881,0.0,0.0,0.0,0,0,0.0
0,-1.8136190191319714,0.07797820359164359,0,0.0,0.0,0.8119659763535106,0.5837047654801947,0.0,0.0,0.0,0,0,0.0
0,-1.8157894271077892,0.08424712466136414,0,0.0,0.0,0.8119874630934776,0.583674875062322,0.0,0.0,0.0,0,0,0.0
0,-1.8179645740898516,0.09051533273897713,0,0.0,0.0,0.812058046491407,0.5835766694518887,0.0,0.0,0.0,0,0,0.0
0,-1.8201403428931822,0.09678036243867658,0,0.0,0.0,0.8121334227624913,0.5834717676392572,0.0,0.0,0.0,0,0,0.0
0,-1.8223178775385822,0.10305059351487442,0,0.0,0.0,0.812211150705798,0.5833635630283762,0.0,0.0,0.0,0,0,0.0
0,-1.8244962279534112,0.1093161606483202,0,0.0,0.0,0.8122847582117766,0.5832610663989445,0.0,0.0,0.0,0,0,0.0
0,-1.8266710409365896,0.11558682971687179,0,0.0,0.0,0.8123513181626976,0.5831683598064341,0.0,0.0,0.0,0,0,0.0
0,-1.8288462400743593,0.121852858366887,0,0.0,0.0,0.8124132537053881,0.5830820741575091,0.0,0.0,0.0,0,0,0.0
0,-1.8310335893070528,0.12811892641985367,0,0.0,0.0,0.8124701280366481,0.5830028225044126,0.0,0.0,0.0,0,0,0.0
0,-1.8331980020179304,0.1343911303119708,0,0.0,0.0,0.812498629535397,0.5829631008932734,0.0,0.0,0.0,0,0,0.0
0,-1.8353753468464666,0.14066386211571508,0,0.0,0.0,0.8124196172954893,0.5830732076107168,0.0,0.0,0.0,0,0,0.0
0,-1.8375504280521051,0.14692459451556256,0,0.0,0.0,0.8123626301731723,0.5831526018960427,0.0,0.0,0.0,0,0,0.0
0,-1.8397081173899084,0.15321014072196892,0,0.0,0.0,0.8123353560184361,0.5831905943706565,0.0,0.0,0.0,0,0,0.0
0,-1.8418708146568443,0.1594771568969951,0,0.0,0.0,0.8123316519177861,0.5831957538361535,0.0,0.0,0.0,0,0,0.0
0,-1.8440394364550892,0.16574852389918177,0,0.0,0.0,0.8123531522760971,0.5831658048849291,0.0,0.0,0.0,0,0,0.0
0,-1.8462115118096518,0.17202339313611975,0,0.0,0.0,0.8124096879738407,0.5830870422897814,0.0,0.0,0.0,0,0,0.0
0,-1.848386206714724,0.17829178556749814,0,0.0,0.0,0.8125073680691958,0.5829509214618912,0.0,0.0,0.0,0,0,0.0
0,-1.8505645047907513,0.18456252527853426,0,0.0,0.0,0.8126450416057204,0.582758986506116,0.0,0.0,0.0,0,0,0.0
0,-1.8527418192651908,0.19083019068789292,0,0.0,0.0,0.8128345479927103,0.5824946330992977,0.0,0.0,0.0,0,0,0.0
0,-1.8549247432614466,0.19709831425987237,0,0.0,0.0,0.812992483164607,0.5822741813938215,0.0,0.0,0.0,0,0,0.0
0,-1.857110023820406,0.20336363369453828,0,0.0,0.0,0.8131131366393577,0.5821056837246171,0.0,0.0,0.0,0,0,0.0
0,-1.8592952457704741,0.20963436615507489,0,0.0,0.0,0.8132101292800048,0.5819701758994156,0.0,0.0,0.0,0,0,0.0
0,-1.8614801341681708,0.21590499635361357,0,0.0,0.0,0.8132781555115487,0.5818751083933149,0.0,0.0,0.0,0,0,0.0
0,-1.8636635531975934,0.22216812725614934,0,0.0,0.0,0.8133012905012622,0.5818427716049934,0.0,0.0,0.0,0,0,0.0
0,-1.8658427226823613,0.22843722146385642,0,0.0,0.0,0.8132979029325144,0.5818475067279855,0.0,0.0,0.0,0,0,0.0
0,-1.8680283346537703,0.23471100447863824,0,0.0,0.0,0.8133060858893213,0.5818360685411232,0.0,0.0,0.0,0,0,0.0
0,-1.870212383680679,0.24097138630518128,0,0.0,0.0,0.8133321149594007,0.5817996826878362,0.0,0.0,0.0,0,0,0.0
0,-1.8723937675618614,0.24724150243258097,0,0.0,0.0,0.8133628151721388,0.5817567626553665,0.0,0.0,0.0,0,0,0.0
0,-1.8745878083153642,0.25350958003484947,0,0.0,0.0,0.8133976086917852,0.5817081142415708,0.0,0.0,0.0,0,0,0.0
0,-1.8767626776001658,0.25977862536620006,0,0.0,0.0,0.8134288909156742,0.5816643700826921,0.0,0.0,0.0,0,0,0.0
0,-1.8789482859227868,0.26604632657214006,0,0.0,0.0,0.8134608285507121,0.5816197042858742,0.0,0.0,0.0,0,0,0.0
0,-1.881134548802966,0.27231361251876174,0,0.0,0.0,0.8134931324767388,0.5815745209456668,0.0,0.0,0.0,0,0,0.0
0,-1.8833217170685859,0.27858462714240495,0,0.0,0.0,0.8135291751647401,0.5815241019560383,0.0,0.0,0.0,0,0,0.0
0,-1.885508372492804,0.28484953664989227,0,0.0,0.0,0.8135132621005096,0.5815463630585153,0.0,0.0,0.0,0,0,0.0
0,-1.8876950591270316,0.2911187064147427,0,0.0,0.0,0.8133716477173042,0.5817444135439865,0.0,0.0,0.0,0,0,0.0
0,-1.8898726559167933,0.29739259751333347,0,0.0,0.0,0.8132326806935721,0.5819386626199924,0.0,0.0,0.0,0,0,0.0
0,-1.8920445192110624,0.3036653250232143,0,0.0,0.0,0.8131357746174369,0.5820740606119637,0.0,0.0,0.0,0,0,0.0
0,-1.8942190661930376,0.30994215482535725,0,0.0,0.0,0.8130688449688751,0.5821675474818035,0.0,0.0,0.0,0,0,0.0
0,-1.8963934559420461,0.3162123726191535,0,0.0,0.0,0.8130644720397517,0.5821736547686769,0.0,0.0,0.0,0,0,0.0
0,-1.8985731752571204,0.3224924389573376,0,0.0,0.0,0.8131180688882467,0.582098794061152,0.0,0.0,0.0,0,0,0.0
0,-1.9007416102643508,0.3287624323781028,0,0.0,0.0,0.8132136007858795,0.5819653249952809,0.0,0.0,0.0,0,0,0.0
0,-1.90292118709088,0.3350326634103663,0,0.0,0.0,0.8132783665356517,0.5818748134479622,0.0,0.0,0.0,0,0,0.0
0,-1.905109010326981,0.3413051808091893,0,0.0,0.0,0.813198748115239,0.5819860789261263,0.0,0.0,0.0,0,0,0.0
0,-1.907265621499235,0.34758256107552377,0,0.0,0.0,0.8129600298241135,0.5823194912660706,0.0,0.0,0.0,0,0,0.0
0,-1.9094436552287082,0.35385404897049383,0,0.0,0.0,0.8126971298122732,0.5826863437518438,0.0,0.0,0.0,0,0,0.0
0,-1.9115730756700249,0.36014312030329276,0,0.0,0.0,0.8125241580152863,0.5829275192007571,0.0,0.0,0.0,0,0,0.0
0,-1.91372585083534,0.3664287285697147,0,0.0,0.0,0.8125107327101558,0.582946231852308,0.0,0.0,0.0,0,0,0.0
0,-1.915882171890949,0.3727088596353748,0,0.0,0.0,0.8125682281256693,0.5828660863703682,0.0,0.0,0.0,0,0,0.0
0,-1.9180431301047585,0.3789853235901774,0,0.0,0.0,0.8127049337008851,0.5826754591865347,0.0,0.0,0.0,0,0,0.0
0,-1.9202008475608439,0.385268942113044,0,0.0,0.0,0.8128492875789962,0.5824740643859753,0.0,0.0,0.0,0,0,0.0
0,-1.9223434595231692,0.39155398192102236,0,0.0,0.0,0.8128351883288811,0.582493739549492,0.0,0.0,0.0,0,0,0.0
0,-1.924469305106546,0.3978519022930865,0,0.0,0.0,0.8126633880829571,0.5827334018824799,0.0,0.0,0.0,0,0,0.0
0,-1.9265782253103267,0.4041473651455892,0,0.0,0.0,0.8123241485379786,0.5832062051299242,0.0,0.0,0.0,0,0,0.0
0,-1.9286757311266203,0.410449328826957,0,0.0,0.0,0.8118966064038391,0.5838012508636211,0.0,0.0,0.0,0,0,0.0
0,-1.9307630864400176,0.4167629980247722,0,0.0,0.0,0.811633910792906,0.5841664102385653,0.0,0.0,0.0,0,0,0.0
0,-1.932852015572446,0.4230614408444302,0,0.0,0.0,0.8115227080792057,0.5843208829673907,0.0,0.0,0.0,0,0,0.0
0,-1.9349617043667604,0.42936770045389117,0,0.0,0.0,0.8115759012758892,0.5842469995372058,0.0,0.0,0.0,0,0,0.0
0,-1.9370536639747553,0.43566418559208114,0,0.0,0.0,0.8117523110371191,0.5840018711664334,0.0,0.0,0.0,0,0,0.0
0,-1.9391327037475692,0.44197784099865334,0,0.0,0.0,0.8117841075432914,0.5839576720449358,0.0,0.0,0.0,0,0,0.0
0,-1.9411488008161966,0.44830440215935224,0,0.0,0.0,0.8116487772644734,0.5841457543841987,0.0,0.0,0.0,0,0,0.0
0,-1.9431705509332666,0.45463738176489377,0,0.0,0.0,0.8113529893101863,0.5845565214223717,0.0,0.0,0.0,0,0,0.0
0,-1.9451431391308853,0.4609950374661289,0,0.0,0.0,0.8109078373111326,0.5851738881626392,0.0,0.0,0.0,0,0,0.0
0,-1.9471139363688663,0.46734354137012973,0,0.0,0.0,0.8104797592628047,0.5857666428069335,0.0,0.0,0.0,0,0,0.0
